{
    "nodes": [
        {
            "AirportId": 21,
            "id": "Sault Sainte Marie",
            "City": "Sault Sainte Marie",
            "Country": "Canada",
            "IATA": "YAM",
            "ICAO": "CYAM",
            "Latitude": 46.48500061035156,
            "Longitude": -84.5093994140625,
            "Altitude": 630,
            "TimeZone": "-5",
            "DST": "A",
            "TZTime": "America/Toronto",
            "Type": "airport",
            "Source": "OurAirports"
        },
        {
            "AirportId": 22,
            "id": "Winnipeg",
            "City": "Winnipeg",
            "Country": "Canada",
            "IATA": "\\N",
            "ICAO": "CYAV",
            "Latitude": 50.0564002991,
            "Longitude": -97.0325012207,
            "Altitude": 760,
            "TimeZone": "-6",
            "DST": "A",
            "TZTime": "America/Winnipeg",
            "Type": "airport",
            "Source": "OurAirports"
        },
        {
            "AirportId": 23,
            "id": "Halifax",
            "City": "Halifax",
            "Country": "Canada",
            "IATA": "\\N",
            "ICAO": "CYAW",
            "Latitude": 44.639702,
            "Longitude": -63.499401,
            "Altitude": 144,
            "TimeZone": "-4",
            "DST": "A",
            "TZTime": "America/Halifax",
            "Type": "airport",
            "Source": "OurAirports"
        },
        {
            "AirportId": 24,
            "id": "St. Anthony",
            "City": "St. Anthony",
            "Country": "Canada",
            "IATA": "YAY",
            "ICAO": "CYAY",
            "Latitude": 51.391899108900006,
            "Longitude": -56.083099365200006,
            "Altitude": 108,
            "TimeZone": "-3.5",
            "DST": "A",
            "TZTime": "America/St_Johns",
            "Type": "airport",
            "Source": "OurAirports"
        },
        {
            "AirportId": 25,
            "id": "Tofino",
            "City": "Tofino",
            "Country": "Canada",
            "IATA": "YAZ",
            "ICAO": "CYAZ",
            "Latitude": 49.079833,
            "Longitude": -125.77558300000001,
            "Altitude": 80,
            "TimeZone": "-8",
            "DST": "A",
            "TZTime": "America/Vancouver",
            "Type": "airport",
            "Source": "OurAirports"
        },
        {
            "AirportId": 26,
            "id": "Pelly Bay",
            "City": "Pelly Bay",
            "Country": "Canada",
            "IATA": "YBB",
            "ICAO": "CYBB",
            "Latitude": 68.534401,
            "Longitude": -89.808098,
            "Altitude": 56,
            "TimeZone": "-7",
            "DST": "A",
            "TZTime": "America/Edmonton",
            "Type": "airport",
            "Source": "OurAirports"
        },
        {
            "AirportId": 27,
            "id": "Baie Comeau",
            "City": "Baie Comeau",
            "Country": "Canada",
            "IATA": "YBC",
            "ICAO": "CYBC",
            "Latitude": 49.13249969482422,
            "Longitude": -68.20439910888672,
            "Altitude": 71,
            "TimeZone": "-5",
            "DST": "A",
            "TZTime": "America/Toronto",
            "Type": "airport",
            "Source": "OurAirports"
        },
        {
            "AirportId": 28,
            "id": "Bagotville",
            "City": "Bagotville",
            "Country": "Canada",
            "IATA": "YBG",
            "ICAO": "CYBG",
            "Latitude": 48.33060073852539,
            "Longitude": -70.99639892578125,
            "Altitude": 522,
            "TimeZone": "-5",
            "DST": "A",
            "TZTime": "America/Toronto",
            "Type": "airport",
            "Source": "OurAirports"
        },
        {
            "AirportId": 29,
            "id": "Baker Lake",
            "City": "Baker Lake",
            "Country": "Canada",
            "IATA": "YBK",
            "ICAO": "CYBK",
            "Latitude": 64.29889678960001,
            "Longitude": -96.077796936,
            "Altitude": 59,
            "TimeZone": "-6",
            "DST": "A",
            "TZTime": "America/Winnipeg",
            "Type": "airport",
            "Source": "OurAirports"
        },
        {
            "AirportId": 30,
            "id": "Campbell River",
            "City": "Campbell River",
            "Country": "Canada",
            "IATA": "YBL",
            "ICAO": "CYBL",
            "Latitude": 49.95080184936523,
            "Longitude": -125.27100372314452,
            "Altitude": 346,
            "TimeZone": "-8",
            "DST": "A",
            "TZTime": "America/Vancouver",
            "Type": "airport",
            "Source": "OurAirports"
        },
        {
            "AirportId": 31,
            "id": "Brandon",
            "City": "Brandon",
            "Country": "Canada",
            "IATA": "YBR",
            "ICAO": "CYBR",
            "Latitude": 49.91,
            "Longitude": -99.951897,
            "Altitude": 1343,
            "TimeZone": "-6",
            "DST": "A",
            "TZTime": "America/Winnipeg",
            "Type": "airport",
            "Source": "OurAirports"
        },
        {
            "AirportId": 32,
            "id": "Cambridge Bay",
            "City": "Cambridge Bay",
            "Country": "Canada",
            "IATA": "YCB",
            "ICAO": "CYCB",
            "Latitude": 69.1081008911,
            "Longitude": -105.13800048799999,
            "Altitude": 90,
            "TimeZone": "-7",
            "DST": "A",
            "TZTime": "America/Edmonton",
            "Type": "airport",
            "Source": "OurAirports"
        },
        {
            "AirportId": 33,
            "id": "Nanaimo",
            "City": "Nanaimo",
            "Country": "Canada",
            "IATA": "YCD",
            "ICAO": "CYCD",
            "Latitude": 49.054970224899996,
            "Longitude": -123.869862556,
            "Altitude": 92,
            "TimeZone": "-8",
            "DST": "A",
            "TZTime": "America/Vancouver",
            "Type": "airport",
            "Source": "OurAirports"
        },
        {
            "AirportId": 34,
            "id": "Castlegar",
            "City": "Castlegar",
            "Country": "Canada",
            "IATA": "YCG",
            "ICAO": "CYCG",
            "Latitude": 49.296398162799996,
            "Longitude": -117.63200378399999,
            "Altitude": 1624,
            "TimeZone": "-8",
            "DST": "A",
            "TZTime": "America/Vancouver",
            "Type": "airport",
            "Source": "OurAirports"
        },
        {
            "AirportId": 35,
            "id": "Chatham",
            "City": "Chatham",
            "Country": "Canada",
            "IATA": "YCH",
            "ICAO": "CYCH",
            "Latitude": 47.007801,
            "Longitude": -65.449203,
            "Altitude": 108,
            "TimeZone": "-4",
            "DST": "A",
            "TZTime": "America/Halifax",
            "Type": "airport",
            "Source": "OurAirports"
        },
        {
            "AirportId": 36,
            "id": "Charlo",
            "City": "Charlo",
            "Country": "Canada",
            "IATA": "YCL",
            "ICAO": "CYCL",
            "Latitude": 47.990798999999996,
            "Longitude": -66.330299,
            "Altitude": 132,
            "TimeZone": "-4",
            "DST": "A",
            "TZTime": "America/Halifax",
            "Type": "airport",
            "Source": "OurAirports"
        },
        {
            "AirportId": 37,
            "id": "Coppermine",
            "City": "Coppermine",
            "Country": "Canada",
            "IATA": "YCO",
            "ICAO": "CYCO",
            "Latitude": 67.816704,
            "Longitude": -115.143997,
            "Altitude": 74,
            "TimeZone": "-7",
            "DST": "A",
            "TZTime": "America/Edmonton",
            "Type": "airport",
            "Source": "OurAirports"
        },
        {
            "AirportId": 38,
            "id": "Coronation",
            "City": "Coronation",
            "Country": "Canada",
            "IATA": "YCT",
            "ICAO": "CYCT",
            "Latitude": 52.0750007629,
            "Longitude": -111.444999695,
            "Altitude": 2595,
            "TimeZone": "-7",
            "DST": "A",
            "TZTime": "America/Edmonton",
            "Type": "airport",
            "Source": "OurAirports"
        },
        {
            "AirportId": 39,
            "id": "Chilliwack",
            "City": "Chilliwack",
            "Country": "Canada",
            "IATA": "YCW",
            "ICAO": "CYCW",
            "Latitude": 49.1528015137,
            "Longitude": -121.93900299100001,
            "Altitude": 32,
            "TimeZone": "-8",
            "DST": "A",
            "TZTime": "America/Vancouver",
            "Type": "airport",
            "Source": "OurAirports"
        },
        {
            "AirportId": 40,
            "id": "Clyde River",
            "City": "Clyde River",
            "Country": "Canada",
            "IATA": "YCY",
            "ICAO": "CYCY",
            "Latitude": 70.4860992432,
            "Longitude": -68.5167007446,
            "Altitude": 87,
            "TimeZone": "-5",
            "DST": "A",
            "TZTime": "America/Toronto",
            "Type": "airport",
            "Source": "OurAirports"
        },
        {
            "AirportId": 41,
            "id": "Coral Harbour",
            "City": "Coral Harbour",
            "Country": "Canada",
            "IATA": "YZS",
            "ICAO": "CYZS",
            "Latitude": 64.1932983398,
            "Longitude": -83.3593978882,
            "Altitude": 210,
            "TimeZone": "-5",
            "DST": "A",
            "TZTime": "America/Coral_Harbour",
            "Type": "airport",
            "Source": "OurAirports"
        },
        {
            "AirportId": 42,
            "id": "Dawson",
            "City": "Dawson",
            "Country": "Canada",
            "IATA": "YDA",
            "ICAO": "CYDA",
            "Latitude": 64.04309844970703,
            "Longitude": -139.12800598144528,
            "Altitude": 1215,
            "TimeZone": "-8",
            "DST": "A",
            "TZTime": "America/Vancouver",
            "Type": "airport",
            "Source": "OurAirports"
        },
        {
            "AirportId": 43,
            "id": "Burwash",
            "City": "Burwash",
            "Country": "Canada",
            "IATA": "YDB",
            "ICAO": "CYDB",
            "Latitude": 61.37110137939453,
            "Longitude": -139.04100036621094,
            "Altitude": 2647,
            "TimeZone": "-8",
            "DST": "A",
            "TZTime": "America/Vancouver",
            "Type": "airport",
            "Source": "OurAirports"
        },
        {
            "AirportId": 44,
            "id": "Princeton",
            "City": "Princeton",
            "Country": "Canada",
            "IATA": "\\N",
            "ICAO": "CYDC",
            "Latitude": 49.468101501499994,
            "Longitude": -120.51100158700001,
            "Altitude": 2298,
            "TimeZone": "-8",
            "DST": "A",
            "TZTime": "America/Vancouver",
            "Type": "airport",
            "Source": "OurAirports"
        },
        {
            "AirportId": 45,
            "id": "Deer Lake",
            "City": "Deer Lake",
            "Country": "Canada",
            "IATA": "YDF",
            "ICAO": "CYDF",
            "Latitude": 49.21080017089844,
            "Longitude": -57.39139938354492,
            "Altitude": 72,
            "TimeZone": "-3.5",
            "DST": "A",
            "TZTime": "America/St_Johns",
            "Type": "airport",
            "Source": "OurAirports"
        },
        {
            "AirportId": 46,
            "id": "Dease Lake",
            "City": "Dease Lake",
            "Country": "Canada",
            "IATA": "YDL",
            "ICAO": "CYDL",
            "Latitude": 58.4221992493,
            "Longitude": -130.031997681,
            "Altitude": 2600,
            "TimeZone": "-8",
            "DST": "A",
            "TZTime": "America/Vancouver",
            "Type": "airport",
            "Source": "OurAirports"
        },
        {
            "AirportId": 47,
            "id": "Dauphin",
            "City": "Dauphin",
            "Country": "Canada",
            "IATA": "YDN",
            "ICAO": "CYDN",
            "Latitude": 51.10079956054688,
            "Longitude": -100.052001953125,
            "Altitude": 999,
            "TimeZone": "-6",
            "DST": "A",
            "TZTime": "America/Winnipeg",
            "Type": "airport",
            "Source": "OurAirports"
        },
        {
            "AirportId": 48,
            "id": "Dawson Creek",
            "City": "Dawson Creek",
            "Country": "Canada",
            "IATA": "YDQ",
            "ICAO": "CYDQ",
            "Latitude": 55.7422981262207,
            "Longitude": -120.18299865722656,
            "Altitude": 2148,
            "TimeZone": "-7",
            "DST": "A",
            "TZTime": "America/Dawson_Creek",
            "Type": "airport",
            "Source": "OurAirports"
        },
        {
            "AirportId": 49,
            "id": "Edmonton",
            "City": "Edmonton",
            "Country": "Canada",
            "IATA": "YEG",
            "ICAO": "CYEG",
            "Latitude": 53.309700012200004,
            "Longitude": -113.580001831,
            "Altitude": 2373,
            "TimeZone": "-7",
            "DST": "A",
            "TZTime": "America/Edmonton",
            "Type": "airport",
            "Source": "OurAirports"
        },
        {
            "AirportId": 50,
            "id": "Eskimo Point",
            "City": "Eskimo Point",
            "Country": "Canada",
            "IATA": "YEK",
            "ICAO": "CYEK",
            "Latitude": 61.0942001343,
            "Longitude": -94.0708007812,
            "Altitude": 32,
            "TimeZone": "-6",
            "DST": "A",
            "TZTime": "America/Winnipeg",
            "Type": "airport",
            "Source": "OurAirports"
        },
        {
            "AirportId": 51,
            "id": "Estevan",
            "City": "Estevan",
            "Country": "Canada",
            "IATA": "YEN",
            "ICAO": "CYEN",
            "Latitude": 49.210300445600005,
            "Longitude": -102.96600341799999,
            "Altitude": 1905,
            "TimeZone": "-6",
            "DST": "N",
            "TZTime": "America/Regina",
            "Type": "airport",
            "Source": "OurAirports"
        },
        {
            "AirportId": 52,
            "id": "Edson",
            "City": "Edson",
            "Country": "Canada",
            "IATA": "YET",
            "ICAO": "CYET",
            "Latitude": 53.5788993835,
            "Longitude": -116.46499633799999,
            "Altitude": 3043,
            "TimeZone": "-7",
            "DST": "A",
            "TZTime": "America/Edmonton",
            "Type": "airport",
            "Source": "OurAirports"
        },
        {
            "AirportId": 53,
            "id": "Eureka",
            "City": "Eureka",
            "Country": "Canada",
            "IATA": "YEU",
            "ICAO": "CYEU",
            "Latitude": 79.9946975708,
            "Longitude": -85.814201355,
            "Altitude": 256,
            "TimeZone": "-6",
            "DST": "A",
            "TZTime": "America/Winnipeg",
            "Type": "airport",
            "Source": "OurAirports"
        },
        {
            "AirportId": 54,
            "id": "Inuvik",
            "City": "Inuvik",
            "Country": "Canada",
            "IATA": "YEV",
            "ICAO": "CYEV",
            "Latitude": 68.30419921880001,
            "Longitude": -133.483001709,
            "Altitude": 224,
            "TimeZone": "-7",
            "DST": "A",
            "TZTime": "America/Edmonton",
            "Type": "airport",
            "Source": "OurAirports"
        },
        {
            "AirportId": 55,
            "id": "Iqaluit",
            "City": "Iqaluit",
            "Country": "Canada",
            "IATA": "YFB",
            "ICAO": "CYFB",
            "Latitude": 63.756402,
            "Longitude": -68.555801,
            "Altitude": 110,
            "TimeZone": "-5",
            "DST": "A",
            "TZTime": "America/Toronto",
            "Type": "airport",
            "Source": "OurAirports"
        },
        {
            "AirportId": 56,
            "id": "Fredericton",
            "City": "Fredericton",
            "Country": "Canada",
            "IATA": "YFC",
            "ICAO": "CYFC",
            "Latitude": 45.86890029907226,
            "Longitude": -66.53720092773439,
            "Altitude": 68,
            "TimeZone": "-4",
            "DST": "A",
            "TZTime": "America/Halifax",
            "Type": "airport",
            "Source": "OurAirports"
        },
        {
            "AirportId": 57,
            "id": "Forestville",
            "City": "Forestville",
            "Country": "Canada",
            "IATA": "YFE",
            "ICAO": "CYFE",
            "Latitude": 48.74610137939453,
            "Longitude": -69.09719848632811,
            "Altitude": 293,
            "TimeZone": "-5",
            "DST": "A",
            "TZTime": "America/Toronto",
            "Type": "airport",
            "Source": "OurAirports"
        },
        {
            "AirportId": 58,
            "id": "Flin Flon",
            "City": "Flin Flon",
            "Country": "Canada",
            "IATA": "YFO",
            "ICAO": "CYFO",
            "Latitude": 54.6781005859375,
            "Longitude": -101.68199920654295,
            "Altitude": 997,
            "TimeZone": "-6",
            "DST": "A",
            "TZTime": "America/Winnipeg",
            "Type": "airport",
            "Source": "OurAirports"
        },
        {
            "AirportId": 59,
            "id": "Fort Resolution",
            "City": "Fort Resolution",
            "Country": "Canada",
            "IATA": "YFR",
            "ICAO": "CYFR",
            "Latitude": 61.1808013916,
            "Longitude": -113.690002441,
            "Altitude": 526,
            "TimeZone": "-7",
            "DST": "A",
            "TZTime": "America/Edmonton",
            "Type": "airport",
            "Source": "OurAirports"
        },
        {
            "AirportId": 60,
            "id": "Fort Simpson",
            "City": "Fort Simpson",
            "Country": "Canada",
            "IATA": "YFS",
            "ICAO": "CYFS",
            "Latitude": 61.76020050048828,
            "Longitude": -121.23699951171876,
            "Altitude": 555,
            "TimeZone": "-7",
            "DST": "A",
            "TZTime": "America/Edmonton",
            "Type": "airport",
            "Source": "OurAirports"
        },
        {
            "AirportId": 61,
            "id": "Kingston",
            "City": "Kingston",
            "Country": "Canada",
            "IATA": "YGK",
            "ICAO": "CYGK",
            "Latitude": 44.22529983520508,
            "Longitude": -76.5969009399414,
            "Altitude": 305,
            "TimeZone": "-5",
            "DST": "A",
            "TZTime": "America/Toronto",
            "Type": "airport",
            "Source": "OurAirports"
        },
        {
            "AirportId": 62,
            "id": "La Grande Riviere",
            "City": "La Grande Riviere",
            "Country": "Canada",
            "IATA": "YGL",
            "ICAO": "CYGL",
            "Latitude": 53.62530136108398,
            "Longitude": -77.7042007446289,
            "Altitude": 639,
            "TimeZone": "-5",
            "DST": "A",
            "TZTime": "America/Toronto",
            "Type": "airport",
            "Source": "OurAirports"
        },
        {
            "AirportId": 63,
            "id": "Gaspe",
            "City": "Gaspe",
            "Country": "Canada",
            "IATA": "YGP",
            "ICAO": "CYGP",
            "Latitude": 48.775299072299994,
            "Longitude": -64.4785995483,
            "Altitude": 112,
            "TimeZone": "-5",
            "DST": "A",
            "TZTime": "America/Toronto",
            "Type": "airport",
            "Source": "OurAirports"
        },
        {
            "AirportId": 64,
            "id": "Geraldton",
            "City": "Geraldton",
            "Country": "Canada",
            "IATA": "YGQ",
            "ICAO": "CYGQ",
            "Latitude": 49.77830123901367,
            "Longitude": -86.93939971923828,
            "Altitude": 1144,
            "TimeZone": "-5",
            "DST": "A",
            "TZTime": "America/Toronto",
            "Type": "airport",
            "Source": "OurAirports"
        },
        {
            "AirportId": 65,
            "id": "Iles De La Madeleine",
            "City": "Iles De La Madeleine",
            "Country": "Canada",
            "IATA": "YGR",
            "ICAO": "CYGR",
            "Latitude": 47.42470169067383,
            "Longitude": -61.778099060058594,
            "Altitude": 35,
            "TimeZone": "-5",
            "DST": "A",
            "TZTime": "America/Toronto",
            "Type": "airport",
            "Source": "OurAirports"
        },
        {
            "AirportId": 66,
            "id": "Hudson Bay",
            "City": "Hudson Bay",
            "Country": "Canada",
            "IATA": "YHB",
            "ICAO": "CYHB",
            "Latitude": 52.8166999817,
            "Longitude": -102.31099700899999,
            "Altitude": 1175,
            "TimeZone": "-6",
            "DST": "N",
            "TZTime": "America/Regina",
            "Type": "airport",
            "Source": "OurAirports"
        },
        {
            "AirportId": 67,
            "id": "Dryden",
            "City": "Dryden",
            "Country": "Canada",
            "IATA": "YHD",
            "ICAO": "CYHD",
            "Latitude": 49.83169937133789,
            "Longitude": -92.74420166015624,
            "Altitude": 1354,
            "TimeZone": "-6",
            "DST": "A",
            "TZTime": "America/Winnipeg",
            "Type": "airport",
            "Source": "OurAirports"
        },
        {
            "AirportId": 68,
            "id": "Holman Island",
            "City": "Holman Island",
            "Country": "Canada",
            "IATA": "YHI",
            "ICAO": "CYHI",
            "Latitude": 70.76280212402344,
            "Longitude": -117.80599975585938,
            "Altitude": 117,
            "TimeZone": "-7",
            "DST": "A",
            "TZTime": "America/Edmonton",
            "Type": "airport",
            "Source": "OurAirports"
        },
        {
            "AirportId": 69,
            "id": "Gjoa Haven",
            "City": "Gjoa Haven",
            "Country": "Canada",
            "IATA": "YHK",
            "ICAO": "CYHK",
            "Latitude": 68.635597229,
            "Longitude": -95.8497009277,
            "Altitude": 152,
            "TimeZone": "-7",
            "DST": "A",
            "TZTime": "America/Edmonton",
            "Type": "airport",
            "Source": "OurAirports"
        },
        {
            "AirportId": 70,
            "id": "Hamilton",
            "City": "Hamilton",
            "Country": "Canada",
            "IATA": "YHM",
            "ICAO": "CYHM",
            "Latitude": 43.173599243199995,
            "Longitude": -79.93499755859999,
            "Altitude": 780,
            "TimeZone": "-5",
            "DST": "A",
            "TZTime": "America/Toronto",
            "Type": "airport",
            "Source": "OurAirports"
        },
        {
            "AirportId": 71,
            "id": "Montreal",
            "City": "Montreal",
            "Country": "Canada",
            "IATA": "YHU",
            "ICAO": "CYHU",
            "Latitude": 45.5175018311,
            "Longitude": -73.4169006348,
            "Altitude": 90,
            "TimeZone": "-5",
            "DST": "A",
            "TZTime": "America/Toronto",
            "Type": "airport",
            "Source": "OurAirports"
        },
        {
            "AirportId": 72,
            "id": "Hay River",
            "City": "Hay River",
            "Country": "Canada",
            "IATA": "YHY",
            "ICAO": "CYHY",
            "Latitude": 60.8396987915,
            "Longitude": -115.782997131,
            "Altitude": 541,
            "TimeZone": "-7",
            "DST": "A",
            "TZTime": "America/Edmonton",
            "Type": "airport",
            "Source": "OurAirports"
        },
        {
            "AirportId": 73,
            "id": "Halifax",
            "City": "Halifax",
            "Country": "Canada",
            "IATA": "YHZ",
            "ICAO": "CYHZ",
            "Latitude": 44.880798339799995,
            "Longitude": -63.508598327600005,
            "Altitude": 477,
            "TimeZone": "-4",
            "DST": "A",
            "TZTime": "America/Halifax",
            "Type": "airport",
            "Source": "OurAirports"
        },
        {
            "AirportId": 74,
            "id": "Atikokan",
            "City": "Atikokan",
            "Country": "Canada",
            "IATA": "YIB",
            "ICAO": "CYIB",
            "Latitude": 48.7738990784,
            "Longitude": -91.6386032104,
            "Altitude": 1408,
            "TimeZone": "-5",
            "DST": "A",
            "TZTime": "America/Coral_Harbour",
            "Type": "airport",
            "Source": "OurAirports"
        },
        {
            "AirportId": 75,
            "id": "Pond Inlet",
            "City": "Pond Inlet",
            "Country": "Canada",
            "IATA": "YIO",
            "ICAO": "CYIO",
            "Latitude": 72.6832962036,
            "Longitude": -77.9666976929,
            "Altitude": 181,
            "TimeZone": "-5",
            "DST": "A",
            "TZTime": "America/Toronto",
            "Type": "airport",
            "Source": "OurAirports"
        },
        {
            "AirportId": 76,
            "id": "St. Jean",
            "City": "St. Jean",
            "Country": "Canada",
            "IATA": "YJN",
            "ICAO": "CYJN",
            "Latitude": 45.29439926147461,
            "Longitude": -73.28109741210938,
            "Altitude": 136,
            "TimeZone": "-5",
            "DST": "A",
            "TZTime": "America/Toronto",
            "Type": "airport",
            "Source": "OurAirports"
        },
        {
            "AirportId": 77,
            "id": "Stephenville",
            "City": "Stephenville",
            "Country": "Canada",
            "IATA": "YJT",
            "ICAO": "CYJT",
            "Latitude": 48.5442008972168,
            "Longitude": -58.54999923706055,
            "Altitude": 84,
            "TimeZone": "-3.5",
            "DST": "A",
            "TZTime": "America/St_Johns",
            "Type": "airport",
            "Source": "OurAirports"
        },
        {
            "AirportId": 78,
            "id": "Kamloops",
            "City": "Kamloops",
            "Country": "Canada",
            "IATA": "YKA",
            "ICAO": "CYKA",
            "Latitude": 50.702201843299996,
            "Longitude": -120.444000244,
            "Altitude": 1133,
            "TimeZone": "-8",
            "DST": "A",
            "TZTime": "America/Vancouver",
            "Type": "airport",
            "Source": "OurAirports"
        },
        {
            "AirportId": 79,
            "id": "Waterloo",
            "City": "Waterloo",
            "Country": "Canada",
            "IATA": "YKF",
            "ICAO": "CYKF",
            "Latitude": 43.4608001709,
            "Longitude": -80.3786010742,
            "Altitude": 1055,
            "TimeZone": "-5",
            "DST": "A",
            "TZTime": "America/Toronto",
            "Type": "airport",
            "Source": "OurAirports"
        },
        {
            "AirportId": 80,
            "id": "Schefferville",
            "City": "Schefferville",
            "Country": "Canada",
            "IATA": "YKL",
            "ICAO": "CYKL",
            "Latitude": 54.80530166625977,
            "Longitude": -66.8052978515625,
            "Altitude": 1709,
            "TimeZone": "-5",
            "DST": "A",
            "TZTime": "America/Toronto",
            "Type": "airport",
            "Source": "OurAirports"
        },
        {
            "AirportId": 81,
            "id": "Kindersley",
            "City": "Kindersley",
            "Country": "Canada",
            "IATA": "YKY",
            "ICAO": "CYKY",
            "Latitude": 51.5175018311,
            "Longitude": -109.180999756,
            "Altitude": 2277,
            "TimeZone": "-6",
            "DST": "N",
            "TZTime": "America/Regina",
            "Type": "airport",
            "Source": "OurAirports"
        },
        {
            "AirportId": 82,
            "id": "Toronto",
            "City": "Toronto",
            "Country": "Canada",
            "IATA": "YKZ",
            "ICAO": "CYKZ",
            "Latitude": 43.86220169067383,
            "Longitude": -79.37000274658203,
            "Altitude": 650,
            "TimeZone": "-5",
            "DST": "A",
            "TZTime": "America/Toronto",
            "Type": "airport",
            "Source": "OurAirports"
        },
        {
            "AirportId": 83,
            "id": "Chapleau",
            "City": "Chapleau",
            "Country": "Canada",
            "IATA": "YLD",
            "ICAO": "CYLD",
            "Latitude": 47.81999969482422,
            "Longitude": -83.3467025756836,
            "Altitude": 1470,
            "TimeZone": "-5",
            "DST": "A",
            "TZTime": "America/Toronto",
            "Type": "airport",
            "Source": "OurAirports"
        },
        {
            "AirportId": 84,
            "id": "Meadow Lake",
            "City": "Meadow Lake",
            "Country": "Canada",
            "IATA": "YLJ",
            "ICAO": "CYLJ",
            "Latitude": 54.12530136108398,
            "Longitude": -108.52300262451172,
            "Altitude": 1576,
            "TimeZone": "-6",
            "DST": "N",
            "TZTime": "America/Regina",
            "Type": "airport",
            "Source": "OurAirports"
        },
        {
            "AirportId": 85,
            "id": "Lloydminster",
            "City": "Lloydminster",
            "Country": "Canada",
            "IATA": "YLL",
            "ICAO": "CYLL",
            "Latitude": 53.30920028686523,
            "Longitude": -110.072998046875,
            "Altitude": 2193,
            "TimeZone": "-7",
            "DST": "A",
            "TZTime": "America/Edmonton",
            "Type": "airport",
            "Source": "OurAirports"
        },
        {
            "AirportId": 86,
            "id": "Alert",
            "City": "Alert",
            "Country": "Canada",
            "IATA": "YLT",
            "ICAO": "CYLT",
            "Latitude": 82.51779937740001,
            "Longitude": -62.280601501499994,
            "Altitude": 100,
            "TimeZone": "-5",
            "DST": "A",
            "TZTime": "America/Toronto",
            "Type": "airport",
            "Source": "OurAirports"
        },
        {
            "AirportId": 87,
            "id": "Kelowna",
            "City": "Kelowna",
            "Country": "Canada",
            "IATA": "YLW",
            "ICAO": "CYLW",
            "Latitude": 49.9561004639,
            "Longitude": -119.377998352,
            "Altitude": 1421,
            "TimeZone": "-8",
            "DST": "A",
            "TZTime": "America/Vancouver",
            "Type": "airport",
            "Source": "OurAirports"
        },
        {
            "AirportId": 88,
            "id": "Mayo",
            "City": "Mayo",
            "Country": "Canada",
            "IATA": "YMA",
            "ICAO": "CYMA",
            "Latitude": 63.61640167236328,
            "Longitude": -135.86799621582028,
            "Altitude": 1653,
            "TimeZone": "-8",
            "DST": "A",
            "TZTime": "America/Vancouver",
            "Type": "airport",
            "Source": "OurAirports"
        },
        {
            "AirportId": 89,
            "id": "Moose Jaw",
            "City": "Moose Jaw",
            "Country": "Canada",
            "IATA": "YMJ",
            "ICAO": "CYMJ",
            "Latitude": 50.330299377441406,
            "Longitude": -105.55899810791016,
            "Altitude": 1892,
            "TimeZone": "-6",
            "DST": "N",
            "TZTime": "America/Regina",
            "Type": "airport",
            "Source": "OurAirports"
        },
        {
            "AirportId": 90,
            "id": "Fort Mcmurray",
            "City": "Fort Mcmurray",
            "Country": "Canada",
            "IATA": "YMM",
            "ICAO": "CYMM",
            "Latitude": 56.653301238999994,
            "Longitude": -111.22200012200001,
            "Altitude": 1211,
            "TimeZone": "-7",
            "DST": "A",
            "TZTime": "America/Edmonton",
            "Type": "airport",
            "Source": "OurAirports"
        },
        {
            "AirportId": 91,
            "id": "Moosonee",
            "City": "Moosonee",
            "Country": "Canada",
            "IATA": "YMO",
            "ICAO": "CYMO",
            "Latitude": 51.291099548339844,
            "Longitude": -80.60780334472656,
            "Altitude": 30,
            "TimeZone": "-5",
            "DST": "A",
            "TZTime": "America/Toronto",
            "Type": "airport",
            "Source": "OurAirports"
        },
        {
            "AirportId": 92,
            "id": "Maniwaki",
            "City": "Maniwaki",
            "Country": "Canada",
            "IATA": "YMW",
            "ICAO": "CYMW",
            "Latitude": 46.272800445600005,
            "Longitude": -75.9906005859,
            "Altitude": 656,
            "TimeZone": "-5",
            "DST": "A",
            "TZTime": "America/Toronto",
            "Type": "airport",
            "Source": "OurAirports"
        },
        {
            "AirportId": 93,
            "id": "Montreal",
            "City": "Montreal",
            "Country": "Canada",
            "IATA": "YMX",
            "ICAO": "CYMX",
            "Latitude": 45.679501,
            "Longitude": -74.038696,
            "Altitude": 270,
            "TimeZone": "-5",
            "DST": "A",
            "TZTime": "America/Toronto",
            "Type": "airport",
            "Source": "OurAirports"
        },
        {
            "AirportId": 94,
            "id": "Natashquan",
            "City": "Natashquan",
            "Country": "Canada",
            "IATA": "YNA",
            "ICAO": "CYNA",
            "Latitude": 50.18999862670898,
            "Longitude": -61.78919982910156,
            "Altitude": 39,
            "TimeZone": "-5",
            "DST": "A",
            "TZTime": "America/Toronto",
            "Type": "airport",
            "Source": "OurAirports"
        },
        {
            "AirportId": 95,
            "id": "Gatineau",
            "City": "Gatineau",
            "Country": "Canada",
            "IATA": "YND",
            "ICAO": "CYND",
            "Latitude": 45.5217018127,
            "Longitude": -75.5635986328,
            "Altitude": 211,
            "TimeZone": "-5",
            "DST": "A",
            "TZTime": "America/Toronto",
            "Type": "airport",
            "Source": "OurAirports"
        },
        {
            "AirportId": 96,
            "id": "Matagami",
            "City": "Matagami",
            "Country": "Canada",
            "IATA": "YNM",
            "ICAO": "CYNM",
            "Latitude": 49.76169967651367,
            "Longitude": -77.80280303955078,
            "Altitude": 918,
            "TimeZone": "-5",
            "DST": "A",
            "TZTime": "America/Toronto",
            "Type": "airport",
            "Source": "OurAirports"
        },
        {
            "AirportId": 97,
            "id": "Old Crow",
            "City": "Old Crow",
            "Country": "Canada",
            "IATA": "YOC",
            "ICAO": "CYOC",
            "Latitude": 67.57060241699219,
            "Longitude": -139.83900451660156,
            "Altitude": 824,
            "TimeZone": "-8",
            "DST": "A",
            "TZTime": "America/Vancouver",
            "Type": "airport",
            "Source": "OurAirports"
        },
        {
            "AirportId": 98,
            "id": "Cold Lake",
            "City": "Cold Lake",
            "Country": "Canada",
            "IATA": "YOD",
            "ICAO": "CYOD",
            "Latitude": 54.40499877929688,
            "Longitude": -110.27899932861328,
            "Altitude": 1775,
            "TimeZone": "-7",
            "DST": "A",
            "TZTime": "America/Edmonton",
            "Type": "airport",
            "Source": "OurAirports"
        },
        {
            "AirportId": 99,
            "id": "High Level",
            "City": "High Level",
            "Country": "Canada",
            "IATA": "YOJ",
            "ICAO": "CYOJ",
            "Latitude": 58.62139892578125,
            "Longitude": -117.16500091552734,
            "Altitude": 1110,
            "TimeZone": "-7",
            "DST": "A",
            "TZTime": "America/Edmonton",
            "Type": "airport",
            "Source": "OurAirports"
        },
        {
            "AirportId": 100,
            "id": "Ottawa",
            "City": "Ottawa",
            "Country": "Canada",
            "IATA": "YOW",
            "ICAO": "CYOW",
            "Latitude": 45.3224983215332,
            "Longitude": -75.66919708251953,
            "Altitude": 374,
            "TimeZone": "-5",
            "DST": "A",
            "TZTime": "America/Toronto",
            "Type": "airport",
            "Source": "OurAirports"
        },
        {
            "AirportId": 101,
            "id": "Prince Albert",
            "City": "Prince Albert",
            "Country": "Canada",
            "IATA": "YPA",
            "ICAO": "CYPA",
            "Latitude": 53.214199066199996,
            "Longitude": -105.672996521,
            "Altitude": 1405,
            "TimeZone": "-6",
            "DST": "N",
            "TZTime": "America/Regina",
            "Type": "airport",
            "Source": "OurAirports"
        },
        {
            "AirportId": 102,
            "id": "Peace River",
            "City": "Peace River",
            "Country": "Canada",
            "IATA": "YPE",
            "ICAO": "CYPE",
            "Latitude": 56.226898,
            "Longitude": -117.446999,
            "Altitude": 1873,
            "TimeZone": "-7",
            "DST": "A",
            "TZTime": "America/Edmonton",
            "Type": "airport",
            "Source": "OurAirports"
        },
        {
            "AirportId": 103,
            "id": "Portage-la-prairie",
            "City": "Portage-la-prairie",
            "Country": "Canada",
            "IATA": "YPG",
            "ICAO": "CYPG",
            "Latitude": 49.903099,
            "Longitude": -98.27381700000001,
            "Altitude": 885,
            "TimeZone": "-6",
            "DST": "A",
            "TZTime": "America/Winnipeg",
            "Type": "airport",
            "Source": "OurAirports"
        },
        {
            "AirportId": 104,
            "id": "Pitt Meadows",
            "City": "Pitt Meadows",
            "Country": "Canada",
            "IATA": "\\N",
            "ICAO": "CYPK",
            "Latitude": 49.21609878540039,
            "Longitude": -122.70999908447266,
            "Altitude": 11,
            "TimeZone": "-8",
            "DST": "A",
            "TZTime": "America/Vancouver",
            "Type": "airport",
            "Source": "OurAirports"
        },
        {
            "AirportId": 105,
            "id": "Pickle Lake",
            "City": "Pickle Lake",
            "Country": "Canada",
            "IATA": "YPL",
            "ICAO": "CYPL",
            "Latitude": 51.4463996887207,
            "Longitude": -90.21420288085938,
            "Altitude": 1267,
            "TimeZone": "-5",
            "DST": "A",
            "TZTime": "America/Coral_Harbour",
            "Type": "airport",
            "Source": "OurAirports"
        },
        {
            "AirportId": 106,
            "id": "Port Menier",
            "City": "Port Menier",
            "Country": "Canada",
            "IATA": "YPN",
            "ICAO": "CYPN",
            "Latitude": 49.83639907836914,
            "Longitude": -64.28859710693361,
            "Altitude": 167,
            "TimeZone": "-5",
            "DST": "A",
            "TZTime": "America/Toronto",
            "Type": "airport",
            "Source": "OurAirports"
        },
        {
            "AirportId": 107,
            "id": "Peterborough",
            "City": "Peterborough",
            "Country": "Canada",
            "IATA": "YPQ",
            "ICAO": "CYPQ",
            "Latitude": 44.22999954223633,
            "Longitude": -78.36329650878906,
            "Altitude": 628,
            "TimeZone": "-5",
            "DST": "A",
            "TZTime": "America/Toronto",
            "Type": "airport",
            "Source": "OurAirports"
        },
        {
            "AirportId": 108,
            "id": "Prince Pupert",
            "City": "Prince Pupert",
            "Country": "Canada",
            "IATA": "YPR",
            "ICAO": "CYPR",
            "Latitude": 54.2860984802,
            "Longitude": -130.445007324,
            "Altitude": 116,
            "TimeZone": "-8",
            "DST": "A",
            "TZTime": "America/Vancouver",
            "Type": "airport",
            "Source": "OurAirports"
        },
        {
            "AirportId": 109,
            "id": "Fort Chipewyan",
            "City": "Fort Chipewyan",
            "Country": "Canada",
            "IATA": "YPY",
            "ICAO": "CYPY",
            "Latitude": 58.7672004699707,
            "Longitude": -111.11699676513672,
            "Altitude": 761,
            "TimeZone": "-7",
            "DST": "A",
            "TZTime": "America/Edmonton",
            "Type": "airport",
            "Source": "OurAirports"
        },
        {
            "AirportId": 110,
            "id": "Muskoka",
            "City": "Muskoka",
            "Country": "Canada",
            "IATA": "YQA",
            "ICAO": "CYQA",
            "Latitude": 44.974700927734375,
            "Longitude": -79.30329895019531,
            "Altitude": 925,
            "TimeZone": "-5",
            "DST": "A",
            "TZTime": "America/Toronto",
            "Type": "airport",
            "Source": "OurAirports"
        },
        {
            "AirportId": 111,
            "id": "Quebec",
            "City": "Quebec",
            "Country": "Canada",
            "IATA": "YQB",
            "ICAO": "CYQB",
            "Latitude": 46.7911,
            "Longitude": -71.393303,
            "Altitude": 244,
            "TimeZone": "-5",
            "DST": "A",
            "TZTime": "America/Toronto",
            "Type": "airport",
            "Source": "OurAirports"
        },
        {
            "AirportId": 112,
            "id": "Red Deer Industrial",
            "City": "Red Deer Industrial",
            "Country": "Canada",
            "IATA": "YQF",
            "ICAO": "CYQF",
            "Latitude": 52.18220138549805,
            "Longitude": -113.8939971923828,
            "Altitude": 2968,
            "TimeZone": "-7",
            "DST": "A",
            "TZTime": "America/Edmonton",
            "Type": "airport",
            "Source": "OurAirports"
        },
        {
            "AirportId": 113,
            "id": "Windsor",
            "City": "Windsor",
            "Country": "Canada",
            "IATA": "YQG",
            "ICAO": "CYQG",
            "Latitude": 42.27560043334961,
            "Longitude": -82.95559692382812,
            "Altitude": 622,
            "TimeZone": "-5",
            "DST": "A",
            "TZTime": "America/Toronto",
            "Type": "airport",
            "Source": "OurAirports"
        },
        {
            "AirportId": 114,
            "id": "Watson Lake",
            "City": "Watson Lake",
            "Country": "Canada",
            "IATA": "YQH",
            "ICAO": "CYQH",
            "Latitude": 60.11640167236328,
            "Longitude": -128.82200622558594,
            "Altitude": 2255,
            "TimeZone": "-8",
            "DST": "A",
            "TZTime": "America/Vancouver",
            "Type": "airport",
            "Source": "OurAirports"
        },
        {
            "AirportId": 115,
            "id": "Kenora",
            "City": "Kenora",
            "Country": "Canada",
            "IATA": "YQK",
            "ICAO": "CYQK",
            "Latitude": 49.78829956054688,
            "Longitude": -94.36309814453124,
            "Altitude": 1332,
            "TimeZone": "-6",
            "DST": "A",
            "TZTime": "America/Winnipeg",
            "Type": "airport",
            "Source": "OurAirports"
        },
        {
            "AirportId": 116,
            "id": "Lethbridge",
            "City": "Lethbridge",
            "Country": "Canada",
            "IATA": "YQL",
            "ICAO": "CYQL",
            "Latitude": 49.6302986145,
            "Longitude": -112.80000305200001,
            "Altitude": 3048,
            "TimeZone": "-7",
            "DST": "A",
            "TZTime": "America/Edmonton",
            "Type": "airport",
            "Source": "OurAirports"
        },
        {
            "AirportId": 117,
            "id": "Moncton",
            "City": "Moncton",
            "Country": "Canada",
            "IATA": "YQM",
            "ICAO": "CYQM",
            "Latitude": 46.11220169067383,
            "Longitude": -64.67859649658203,
            "Altitude": 232,
            "TimeZone": "-4",
            "DST": "A",
            "TZTime": "America/Halifax",
            "Type": "airport",
            "Source": "OurAirports"
        },
        {
            "AirportId": 119,
            "id": "Comox",
            "City": "Comox",
            "Country": "Canada",
            "IATA": "YQQ",
            "ICAO": "CYQQ",
            "Latitude": 49.71080017089844,
            "Longitude": -124.88700103759766,
            "Altitude": 84,
            "TimeZone": "-8",
            "DST": "A",
            "TZTime": "America/Vancouver",
            "Type": "airport",
            "Source": "OurAirports"
        },
        {
            "AirportId": 120,
            "id": "Regina",
            "City": "Regina",
            "Country": "Canada",
            "IATA": "YQR",
            "ICAO": "CYQR",
            "Latitude": 50.43190002441406,
            "Longitude": -104.66600036621094,
            "Altitude": 1894,
            "TimeZone": "-6",
            "DST": "N",
            "TZTime": "America/Regina",
            "Type": "airport",
            "Source": "OurAirports"
        },
        {
            "AirportId": 121,
            "id": "Thunder Bay",
            "City": "Thunder Bay",
            "Country": "Canada",
            "IATA": "YQT",
            "ICAO": "CYQT",
            "Latitude": 48.37189865112305,
            "Longitude": -89.32389831542969,
            "Altitude": 653,
            "TimeZone": "-5",
            "DST": "A",
            "TZTime": "America/Toronto",
            "Type": "airport",
            "Source": "OurAirports"
        },
        {
            "AirportId": 122,
            "id": "Grande Prairie",
            "City": "Grande Prairie",
            "Country": "Canada",
            "IATA": "YQU",
            "ICAO": "CYQU",
            "Latitude": 55.1796989441,
            "Longitude": -118.885002136,
            "Altitude": 2195,
            "TimeZone": "-7",
            "DST": "A",
            "TZTime": "America/Edmonton",
            "Type": "airport",
            "Source": "OurAirports"
        },
        {
            "AirportId": 123,
            "id": "Yorkton",
            "City": "Yorkton",
            "Country": "Canada",
            "IATA": "YQV",
            "ICAO": "CYQV",
            "Latitude": 51.26470184326172,
            "Longitude": -102.46199798583984,
            "Altitude": 1635,
            "TimeZone": "-6",
            "DST": "N",
            "TZTime": "America/Regina",
            "Type": "airport",
            "Source": "OurAirports"
        },
        {
            "AirportId": 124,
            "id": "North Battleford",
            "City": "North Battleford",
            "Country": "Canada",
            "IATA": "YQW",
            "ICAO": "CYQW",
            "Latitude": 52.76919937133789,
            "Longitude": -108.24400329589844,
            "Altitude": 1799,
            "TimeZone": "-6",
            "DST": "N",
            "TZTime": "America/Regina",
            "Type": "airport",
            "Source": "OurAirports"
        },
        {
            "AirportId": 125,
            "id": "Gander",
            "City": "Gander",
            "Country": "Canada",
            "IATA": "YQX",
            "ICAO": "CYQX",
            "Latitude": 48.9369010925293,
            "Longitude": -54.56809997558594,
            "Altitude": 496,
            "TimeZone": "-3.5",
            "DST": "A",
            "TZTime": "America/St_Johns",
            "Type": "airport",
            "Source": "OurAirports"
        },
        {
            "AirportId": 126,
            "id": "Sydney",
            "City": "Sydney",
            "Country": "Canada",
            "IATA": "YQY",
            "ICAO": "CYQY",
            "Latitude": 46.1614,
            "Longitude": -60.047798,
            "Altitude": 203,
            "TimeZone": "-4",
            "DST": "A",
            "TZTime": "America/Halifax",
            "Type": "airport",
            "Source": "OurAirports"
        },
        {
            "AirportId": 127,
            "id": "Quesnel",
            "City": "Quesnel",
            "Country": "Canada",
            "IATA": "YQZ",
            "ICAO": "CYQZ",
            "Latitude": 53.026100158691406,
            "Longitude": -122.51000213623048,
            "Altitude": 1789,
            "TimeZone": "-8",
            "DST": "A",
            "TZTime": "America/Vancouver",
            "Type": "airport",
            "Source": "OurAirports"
        },
        {
            "AirportId": 128,
            "id": "Resolute",
            "City": "Resolute",
            "Country": "Canada",
            "IATA": "YRB",
            "ICAO": "CYRB",
            "Latitude": 74.71690368649999,
            "Longitude": -94.9693984985,
            "Altitude": 215,
            "TimeZone": "-6",
            "DST": "A",
            "TZTime": "America/Winnipeg",
            "Type": "airport",
            "Source": "OurAirports"
        },
        {
            "AirportId": 129,
            "id": "Riviere Du Loup",
            "City": "Riviere Du Loup",
            "Country": "Canada",
            "IATA": "YRI",
            "ICAO": "CYRI",
            "Latitude": 47.76440048217773,
            "Longitude": -69.58470153808594,
            "Altitude": 427,
            "TimeZone": "-5",
            "DST": "A",
            "TZTime": "America/Toronto",
            "Type": "airport",
            "Source": "OurAirports"
        },
        {
            "AirportId": 130,
            "id": "Roberval",
            "City": "Roberval",
            "Country": "Canada",
            "IATA": "YRJ",
            "ICAO": "CYRJ",
            "Latitude": 48.52000045776367,
            "Longitude": -72.2656021118164,
            "Altitude": 586,
            "TimeZone": "-5",
            "DST": "A",
            "TZTime": "America/Toronto",
            "Type": "airport",
            "Source": "OurAirports"
        },
        {
            "AirportId": 131,
            "id": "Rocky Mountain House",
            "City": "Rocky Mountain House",
            "Country": "Canada",
            "IATA": "YRM",
            "ICAO": "CYRM",
            "Latitude": 52.4296989441,
            "Longitude": -114.903999329,
            "Altitude": 3244,
            "TimeZone": "-7",
            "DST": "A",
            "TZTime": "America/Edmonton",
            "Type": "airport",
            "Source": "OurAirports"
        },
        {
            "AirportId": 132,
            "id": "Rankin Inlet",
            "City": "Rankin Inlet",
            "Country": "Canada",
            "IATA": "YRT",
            "ICAO": "CYRT",
            "Latitude": 62.811401367200006,
            "Longitude": -92.1157989502,
            "Altitude": 94,
            "TimeZone": "-6",
            "DST": "A",
            "TZTime": "America/Winnipeg",
            "Type": "airport",
            "Source": "OurAirports"
        },
        {
            "AirportId": 133,
            "id": "Sudbury",
            "City": "Sudbury",
            "Country": "Canada",
            "IATA": "YSB",
            "ICAO": "CYSB",
            "Latitude": 46.625,
            "Longitude": -80.79889678955078,
            "Altitude": 1141,
            "TimeZone": "-5",
            "DST": "A",
            "TZTime": "America/Toronto",
            "Type": "airport",
            "Source": "OurAirports"
        },
        {
            "AirportId": 134,
            "id": "Sherbrooke",
            "City": "Sherbrooke",
            "Country": "Canada",
            "IATA": "YSC",
            "ICAO": "CYSC",
            "Latitude": 45.4385986328125,
            "Longitude": -71.69139862060547,
            "Altitude": 792,
            "TimeZone": "-5",
            "DST": "A",
            "TZTime": "America/Toronto",
            "Type": "airport",
            "Source": "OurAirports"
        },
        {
            "AirportId": 135,
            "id": "St. John",
            "City": "St. John",
            "Country": "Canada",
            "IATA": "YSJ",
            "ICAO": "CYSJ",
            "Latitude": 45.31610107421875,
            "Longitude": -65.89029693603516,
            "Altitude": 357,
            "TimeZone": "-4",
            "DST": "A",
            "TZTime": "America/Halifax",
            "Type": "airport",
            "Source": "OurAirports"
        },
        {
            "AirportId": 136,
            "id": "Fort Smith",
            "City": "Fort Smith",
            "Country": "Canada",
            "IATA": "YSM",
            "ICAO": "CYSM",
            "Latitude": 60.020301818847656,
            "Longitude": -111.96199798583984,
            "Altitude": 671,
            "TimeZone": "-7",
            "DST": "A",
            "TZTime": "America/Edmonton",
            "Type": "airport",
            "Source": "OurAirports"
        },
        {
            "AirportId": 137,
            "id": "Nanisivik",
            "City": "Nanisivik",
            "Country": "Canada",
            "IATA": "YSR",
            "ICAO": "CYSR",
            "Latitude": 72.982201,
            "Longitude": -84.613602,
            "Altitude": 2106,
            "TimeZone": "-5",
            "DST": "A",
            "TZTime": "America/Toronto",
            "Type": "airport",
            "Source": "OurAirports"
        },
        {
            "AirportId": 138,
            "id": "Summerside",
            "City": "Summerside",
            "Country": "Canada",
            "IATA": "YSU",
            "ICAO": "CYSU",
            "Latitude": 46.44060134887695,
            "Longitude": -63.83359909057617,
            "Altitude": 56,
            "TimeZone": "-4",
            "DST": "A",
            "TZTime": "America/Halifax",
            "Type": "airport",
            "Source": "OurAirports"
        },
        {
            "AirportId": 139,
            "id": "Sachs Harbour",
            "City": "Sachs Harbour",
            "Country": "Canada",
            "IATA": "YSY",
            "ICAO": "CYSY",
            "Latitude": 71.9938964844,
            "Longitude": -125.24299621600001,
            "Altitude": 282,
            "TimeZone": "-7",
            "DST": "A",
            "TZTime": "America/Edmonton",
            "Type": "airport",
            "Source": "OurAirports"
        },
        {
            "AirportId": 140,
            "id": "Cape Dorset",
            "City": "Cape Dorset",
            "Country": "Canada",
            "IATA": "YTE",
            "ICAO": "CYTE",
            "Latitude": 64.2300033569,
            "Longitude": -76.5267028809,
            "Altitude": 164,
            "TimeZone": "-5",
            "DST": "A",
            "TZTime": "America/Toronto",
            "Type": "airport",
            "Source": "OurAirports"
        },
        {
            "AirportId": 141,
            "id": "Thompson",
            "City": "Thompson",
            "Country": "Canada",
            "IATA": "YTH",
            "ICAO": "CYTH",
            "Latitude": 55.80110168457031,
            "Longitude": -97.86419677734376,
            "Altitude": 729,
            "TimeZone": "-6",
            "DST": "A",
            "TZTime": "America/Winnipeg",
            "Type": "airport",
            "Source": "OurAirports"
        },
        {
            "AirportId": 142,
            "id": "Trenton",
            "City": "Trenton",
            "Country": "Canada",
            "IATA": "YTR",
            "ICAO": "CYTR",
            "Latitude": 44.118900299072266,
            "Longitude": -77.5280990600586,
            "Altitude": 283,
            "TimeZone": "-5",
            "DST": "A",
            "TZTime": "America/Toronto",
            "Type": "airport",
            "Source": "OurAirports"
        },
        {
            "AirportId": 143,
            "id": "Timmins",
            "City": "Timmins",
            "Country": "Canada",
            "IATA": "YTS",
            "ICAO": "CYTS",
            "Latitude": 48.569698333699996,
            "Longitude": -81.376701355,
            "Altitude": 967,
            "TimeZone": "-5",
            "DST": "A",
            "TZTime": "America/Toronto",
            "Type": "airport",
            "Source": "OurAirports"
        },
        {
            "AirportId": 144,
            "id": "Toronto",
            "City": "Toronto",
            "Country": "Canada",
            "IATA": "YTZ",
            "ICAO": "CYTZ",
            "Latitude": 43.627499,
            "Longitude": -79.396202,
            "Altitude": 252,
            "TimeZone": "-5",
            "DST": "A",
            "TZTime": "America/Toronto",
            "Type": "airport",
            "Source": "OurAirports"
        },
        {
            "AirportId": 145,
            "id": "Tuktoyaktuk",
            "City": "Tuktoyaktuk",
            "Country": "Canada",
            "IATA": "YUB",
            "ICAO": "CYUB",
            "Latitude": 69.43329620361328,
            "Longitude": -133.0260009765625,
            "Altitude": 15,
            "TimeZone": "-7",
            "DST": "A",
            "TZTime": "America/Edmonton",
            "Type": "airport",
            "Source": "OurAirports"
        },
        {
            "AirportId": 146,
            "id": "Montreal",
            "City": "Montreal",
            "Country": "Canada",
            "IATA": "YUL",
            "ICAO": "CYUL",
            "Latitude": 45.4706001282,
            "Longitude": -73.7407989502,
            "Altitude": 118,
            "TimeZone": "-5",
            "DST": "A",
            "TZTime": "America/Toronto",
            "Type": "airport",
            "Source": "OurAirports"
        },
        {
            "AirportId": 147,
            "id": "Repulse Bay",
            "City": "Repulse Bay",
            "Country": "Canada",
            "IATA": "YUT",
            "ICAO": "CYUT",
            "Latitude": 66.5214004517,
            "Longitude": -86.22470092770003,
            "Altitude": 80,
            "TimeZone": "-6",
            "DST": "A",
            "TZTime": "America/Winnipeg",
            "Type": "airport",
            "Source": "OurAirports"
        },
        {
            "AirportId": 148,
            "id": "Hall Beach",
            "City": "Hall Beach",
            "Country": "Canada",
            "IATA": "YUX",
            "ICAO": "CYUX",
            "Latitude": 68.77610015869999,
            "Longitude": -81.2425,
            "Altitude": 30,
            "TimeZone": "-5",
            "DST": "A",
            "TZTime": "America/Toronto",
            "Type": "airport",
            "Source": "OurAirports"
        },
        {
            "AirportId": 149,
            "id": "Rouyn",
            "City": "Rouyn",
            "Country": "Canada",
            "IATA": "YUY",
            "ICAO": "CYUY",
            "Latitude": 48.20610046386719,
            "Longitude": -78.83560180664062,
            "Altitude": 988,
            "TimeZone": "-5",
            "DST": "A",
            "TZTime": "America/Toronto",
            "Type": "airport",
            "Source": "OurAirports"
        },
        {
            "AirportId": 150,
            "id": "La Ronge",
            "City": "La Ronge",
            "Country": "Canada",
            "IATA": "YVC",
            "ICAO": "CYVC",
            "Latitude": 55.1514015198,
            "Longitude": -105.262001038,
            "Altitude": 1242,
            "TimeZone": "-6",
            "DST": "N",
            "TZTime": "America/Regina",
            "Type": "airport",
            "Source": "OurAirports"
        },
        {
            "AirportId": 151,
            "id": "Vermillion",
            "City": "Vermillion",
            "Country": "Canada",
            "IATA": "YVG",
            "ICAO": "CYVG",
            "Latitude": 53.355800628699996,
            "Longitude": -110.823997498,
            "Altitude": 2025,
            "TimeZone": "-7",
            "DST": "A",
            "TZTime": "America/Edmonton",
            "Type": "airport",
            "Source": "OurAirports"
        },
        {
            "AirportId": 152,
            "id": "Broughton Island",
            "City": "Broughton Island",
            "Country": "Canada",
            "IATA": "YVM",
            "ICAO": "CYVM",
            "Latitude": 67.5457992554,
            "Longitude": -64.03140258789999,
            "Altitude": 21,
            "TimeZone": "-5",
            "DST": "A",
            "TZTime": "America/Toronto",
            "Type": "airport",
            "Source": "OurAirports"
        },
        {
            "AirportId": 153,
            "id": "Val D'or",
            "City": "Val D'or",
            "Country": "Canada",
            "IATA": "YVO",
            "ICAO": "CYVO",
            "Latitude": 48.0532989502,
            "Longitude": -77.7827987671,
            "Altitude": 1107,
            "TimeZone": "-5",
            "DST": "A",
            "TZTime": "America/Toronto",
            "Type": "airport",
            "Source": "OurAirports"
        },
        {
            "AirportId": 154,
            "id": "Quujjuaq",
            "City": "Quujjuaq",
            "Country": "Canada",
            "IATA": "YVP",
            "ICAO": "CYVP",
            "Latitude": 58.09609985351562,
            "Longitude": -68.42690277099611,
            "Altitude": 129,
            "TimeZone": "-5",
            "DST": "A",
            "TZTime": "America/Toronto",
            "Type": "airport",
            "Source": "OurAirports"
        },
        {
            "AirportId": 155,
            "id": "Norman Wells",
            "City": "Norman Wells",
            "Country": "Canada",
            "IATA": "YVQ",
            "ICAO": "CYVQ",
            "Latitude": 65.28160095214844,
            "Longitude": -126.7979965209961,
            "Altitude": 238,
            "TimeZone": "-7",
            "DST": "A",
            "TZTime": "America/Edmonton",
            "Type": "airport",
            "Source": "OurAirports"
        },
        {
            "AirportId": 156,
            "id": "Vancouver",
            "City": "Vancouver",
            "Country": "Canada",
            "IATA": "YVR",
            "ICAO": "CYVR",
            "Latitude": 49.193901061999995,
            "Longitude": -123.183998108,
            "Altitude": 14,
            "TimeZone": "-8",
            "DST": "A",
            "TZTime": "America/Vancouver",
            "Type": "airport",
            "Source": "OurAirports"
        },
        {
            "AirportId": 157,
            "id": "Buffalo Narrows",
            "City": "Buffalo Narrows",
            "Country": "Canada",
            "IATA": "YVT",
            "ICAO": "CYVT",
            "Latitude": 55.8418998718,
            "Longitude": -108.41799926799999,
            "Altitude": 1423,
            "TimeZone": "-6",
            "DST": "N",
            "TZTime": "America/Regina",
            "Type": "airport",
            "Source": "OurAirports"
        },
        {
            "AirportId": 158,
            "id": "Wiarton",
            "City": "Wiarton",
            "Country": "Canada",
            "IATA": "YVV",
            "ICAO": "CYVV",
            "Latitude": 44.7458,
            "Longitude": -81.107201,
            "Altitude": 729,
            "TimeZone": "-5",
            "DST": "A",
            "TZTime": "America/Toronto",
            "Type": "airport",
            "Source": "OurAirports"
        },
        {
            "AirportId": 159,
            "id": "Petawawa",
            "City": "Petawawa",
            "Country": "Canada",
            "IATA": "YWA",
            "ICAO": "CYWA",
            "Latitude": 45.95220184326172,
            "Longitude": -77.31919860839844,
            "Altitude": 427,
            "TimeZone": "-5",
            "DST": "A",
            "TZTime": "America/Toronto",
            "Type": "airport",
            "Source": "OurAirports"
        },
        {
            "AirportId": 160,
            "id": "Winnipeg",
            "City": "Winnipeg",
            "Country": "Canada",
            "IATA": "YWG",
            "ICAO": "CYWG",
            "Latitude": 49.909999847399995,
            "Longitude": -97.2398986816,
            "Altitude": 783,
            "TimeZone": "-6",
            "DST": "A",
            "TZTime": "America/Winnipeg",
            "Type": "airport",
            "Source": "OurAirports"
        },
        {
            "AirportId": 161,
            "id": "Wabush",
            "City": "Wabush",
            "Country": "Canada",
            "IATA": "YWK",
            "ICAO": "CYWK",
            "Latitude": 52.92190170288086,
            "Longitude": -66.86440277099611,
            "Altitude": 1808,
            "TimeZone": "-4",
            "DST": "A",
            "TZTime": "America/Halifax",
            "Type": "airport",
            "Source": "OurAirports"
        },
        {
            "AirportId": 162,
            "id": "Williams Lake",
            "City": "Williams Lake",
            "Country": "Canada",
            "IATA": "YWL",
            "ICAO": "CYWL",
            "Latitude": 52.1831016541,
            "Longitude": -122.054000854,
            "Altitude": 3085,
            "TimeZone": "-8",
            "DST": "A",
            "TZTime": "America/Vancouver",
            "Type": "airport",
            "Source": "OurAirports"
        },
        {
            "AirportId": 163,
            "id": "Wrigley",
            "City": "Wrigley",
            "Country": "Canada",
            "IATA": "YWY",
            "ICAO": "CYWY",
            "Latitude": 63.20940017700195,
            "Longitude": -123.43699645996094,
            "Altitude": 489,
            "TimeZone": "-7",
            "DST": "A",
            "TZTime": "America/Edmonton",
            "Type": "airport",
            "Source": "OurAirports"
        },
        {
            "AirportId": 164,
            "id": "Cranbrook",
            "City": "Cranbrook",
            "Country": "Canada",
            "IATA": "YXC",
            "ICAO": "CYXC",
            "Latitude": 49.610801696777,
            "Longitude": -115.78199768066001,
            "Altitude": 3082,
            "TimeZone": "-7",
            "DST": "A",
            "TZTime": "America/Edmonton",
            "Type": "airport",
            "Source": "OurAirports"
        },
        {
            "AirportId": 165,
            "id": "Edmonton",
            "City": "Edmonton",
            "Country": "Canada",
            "IATA": "YXD",
            "ICAO": "CYXD",
            "Latitude": 53.5724983215,
            "Longitude": -113.52100372299999,
            "Altitude": 2202,
            "TimeZone": "-7",
            "DST": "A",
            "TZTime": "America/Edmonton",
            "Type": "airport",
            "Source": "OurAirports"
        },
        {
            "AirportId": 166,
            "id": "Saskatoon",
            "City": "Saskatoon",
            "Country": "Canada",
            "IATA": "YXE",
            "ICAO": "CYXE",
            "Latitude": 52.170799255371094,
            "Longitude": -106.6999969482422,
            "Altitude": 1653,
            "TimeZone": "-6",
            "DST": "N",
            "TZTime": "America/Regina",
            "Type": "airport",
            "Source": "OurAirports"
        },
        {
            "AirportId": 167,
            "id": "Medicine Hat",
            "City": "Medicine Hat",
            "Country": "Canada",
            "IATA": "YXH",
            "ICAO": "CYXH",
            "Latitude": 50.01890182495117,
            "Longitude": -110.72100067138672,
            "Altitude": 2352,
            "TimeZone": "-7",
            "DST": "A",
            "TZTime": "America/Edmonton",
            "Type": "airport",
            "Source": "OurAirports"
        },
        {
            "AirportId": 168,
            "id": "Fort Saint John",
            "City": "Fort Saint John",
            "Country": "Canada",
            "IATA": "YXJ",
            "ICAO": "CYXJ",
            "Latitude": 56.23809814453125,
            "Longitude": -120.73999786376952,
            "Altitude": 2280,
            "TimeZone": "-7",
            "DST": "A",
            "TZTime": "America/Dawson_Creek",
            "Type": "airport",
            "Source": "OurAirports"
        },
        {
            "AirportId": 169,
            "id": "Sioux Lookout",
            "City": "Sioux Lookout",
            "Country": "Canada",
            "IATA": "YXL",
            "ICAO": "CYXL",
            "Latitude": 50.11389923095703,
            "Longitude": -91.9052963256836,
            "Altitude": 1258,
            "TimeZone": "-6",
            "DST": "A",
            "TZTime": "America/Winnipeg",
            "Type": "airport",
            "Source": "OurAirports"
        },
        {
            "AirportId": 170,
            "id": "Pangnirtung",
            "City": "Pangnirtung",
            "Country": "Canada",
            "IATA": "YXP",
            "ICAO": "CYXP",
            "Latitude": 66.1449966431,
            "Longitude": -65.71360015869999,
            "Altitude": 75,
            "TimeZone": "-5",
            "DST": "A",
            "TZTime": "America/Toronto",
            "Type": "airport",
            "Source": "OurAirports"
        },
        {
            "AirportId": 171,
            "id": "Earlton",
            "City": "Earlton",
            "Country": "Canada",
            "IATA": "YXR",
            "ICAO": "CYXR",
            "Latitude": 47.6974006546,
            "Longitude": -79.84734535220001,
            "Altitude": 800,
            "TimeZone": "-5",
            "DST": "A",
            "TZTime": "America/Toronto",
            "Type": "airport",
            "Source": "OurAirports"
        },
        {
            "AirportId": 172,
            "id": "Prince George",
            "City": "Prince George",
            "Country": "Canada",
            "IATA": "YXS",
            "ICAO": "CYXS",
            "Latitude": 53.8894004822,
            "Longitude": -122.679000854,
            "Altitude": 2267,
            "TimeZone": "-8",
            "DST": "A",
            "TZTime": "America/Vancouver",
            "Type": "airport",
            "Source": "OurAirports"
        },
        {
            "AirportId": 173,
            "id": "Terrace",
            "City": "Terrace",
            "Country": "Canada",
            "IATA": "YXT",
            "ICAO": "CYXT",
            "Latitude": 54.468498,
            "Longitude": -128.576009,
            "Altitude": 713,
            "TimeZone": "-8",
            "DST": "A",
            "TZTime": "America/Vancouver",
            "Type": "airport",
            "Source": "OurAirports"
        },
        {
            "AirportId": 174,
            "id": "London",
            "City": "London",
            "Country": "Canada",
            "IATA": "YXU",
            "ICAO": "CYXU",
            "Latitude": 43.035599,
            "Longitude": -81.1539,
            "Altitude": 912,
            "TimeZone": "-5",
            "DST": "A",
            "TZTime": "America/Toronto",
            "Type": "airport",
            "Source": "OurAirports"
        },
        {
            "AirportId": 175,
            "id": "Abbotsford",
            "City": "Abbotsford",
            "Country": "Canada",
            "IATA": "YXX",
            "ICAO": "CYXX",
            "Latitude": 49.02529907226562,
            "Longitude": -122.36100006103516,
            "Altitude": 195,
            "TimeZone": "-8",
            "DST": "A",
            "TZTime": "America/Vancouver",
            "Type": "airport",
            "Source": "OurAirports"
        },
        {
            "AirportId": 176,
            "id": "Whitehorse",
            "City": "Whitehorse",
            "Country": "Canada",
            "IATA": "YXY",
            "ICAO": "CYXY",
            "Latitude": 60.709598541300004,
            "Longitude": -135.067001343,
            "Altitude": 2317,
            "TimeZone": "-8",
            "DST": "A",
            "TZTime": "America/Vancouver",
            "Type": "airport",
            "Source": "OurAirports"
        },
        {
            "AirportId": 177,
            "id": "North Bay",
            "City": "North Bay",
            "Country": "Canada",
            "IATA": "YYB",
            "ICAO": "CYYB",
            "Latitude": 46.36360168457031,
            "Longitude": -79.42279815673828,
            "Altitude": 1215,
            "TimeZone": "-5",
            "DST": "A",
            "TZTime": "America/Toronto",
            "Type": "airport",
            "Source": "OurAirports"
        },
        {
            "AirportId": 178,
            "id": "Calgary",
            "City": "Calgary",
            "Country": "Canada",
            "IATA": "YYC",
            "ICAO": "CYYC",
            "Latitude": 51.113899231000005,
            "Longitude": -114.019996643,
            "Altitude": 3557,
            "TimeZone": "-7",
            "DST": "A",
            "TZTime": "America/Edmonton",
            "Type": "airport",
            "Source": "OurAirports"
        },
        {
            "AirportId": 179,
            "id": "Smithers",
            "City": "Smithers",
            "Country": "Canada",
            "IATA": "YYD",
            "ICAO": "CYYD",
            "Latitude": 54.82469940185547,
            "Longitude": -127.18299865722656,
            "Altitude": 1712,
            "TimeZone": "-8",
            "DST": "A",
            "TZTime": "America/Vancouver",
            "Type": "airport",
            "Source": "OurAirports"
        },
        {
            "AirportId": 180,
            "id": "Fort Nelson",
            "City": "Fort Nelson",
            "Country": "Canada",
            "IATA": "YYE",
            "ICAO": "CYYE",
            "Latitude": 58.8363990784,
            "Longitude": -122.59700012200001,
            "Altitude": 1253,
            "TimeZone": "-8",
            "DST": "A",
            "TZTime": "America/Vancouver",
            "Type": "airport",
            "Source": "OurAirports"
        },
        {
            "AirportId": 181,
            "id": "Penticton",
            "City": "Penticton",
            "Country": "Canada",
            "IATA": "YYF",
            "ICAO": "CYYF",
            "Latitude": 49.46310043334961,
            "Longitude": -119.60199737548828,
            "Altitude": 1129,
            "TimeZone": "-8",
            "DST": "A",
            "TZTime": "America/Vancouver",
            "Type": "airport",
            "Source": "OurAirports"
        },
        {
            "AirportId": 182,
            "id": "Charlottetown",
            "City": "Charlottetown",
            "Country": "Canada",
            "IATA": "YYG",
            "ICAO": "CYYG",
            "Latitude": 46.290000915527344,
            "Longitude": -63.12110137939453,
            "Altitude": 160,
            "TimeZone": "-4",
            "DST": "A",
            "TZTime": "America/Halifax",
            "Type": "airport",
            "Source": "OurAirports"
        },
        {
            "AirportId": 183,
            "id": "Spence Bay",
            "City": "Spence Bay",
            "Country": "Canada",
            "IATA": "YYH",
            "ICAO": "CYYH",
            "Latitude": 69.5466995239,
            "Longitude": -93.57669830319999,
            "Altitude": 92,
            "TimeZone": "-7",
            "DST": "A",
            "TZTime": "America/Edmonton",
            "Type": "airport",
            "Source": "OurAirports"
        },
        {
            "AirportId": 184,
            "id": "Victoria",
            "City": "Victoria",
            "Country": "Canada",
            "IATA": "YYJ",
            "ICAO": "CYYJ",
            "Latitude": 48.646900177,
            "Longitude": -123.426002502,
            "Altitude": 63,
            "TimeZone": "-8",
            "DST": "A",
            "TZTime": "America/Vancouver",
            "Type": "airport",
            "Source": "OurAirports"
        },
        {
            "AirportId": 185,
            "id": "Lynn Lake",
            "City": "Lynn Lake",
            "Country": "Canada",
            "IATA": "YYL",
            "ICAO": "CYYL",
            "Latitude": 56.86389923095703,
            "Longitude": -101.07599639892578,
            "Altitude": 1170,
            "TimeZone": "-6",
            "DST": "A",
            "TZTime": "America/Winnipeg",
            "Type": "airport",
            "Source": "OurAirports"
        },
        {
            "AirportId": 186,
            "id": "Swift Current",
            "City": "Swift Current",
            "Country": "Canada",
            "IATA": "YYN",
            "ICAO": "CYYN",
            "Latitude": 50.291900634799994,
            "Longitude": -107.691001892,
            "Altitude": 2680,
            "TimeZone": "-6",
            "DST": "N",
            "TZTime": "America/Regina",
            "Type": "airport",
            "Source": "OurAirports"
        },
        {
            "AirportId": 187,
            "id": "Churchill",
            "City": "Churchill",
            "Country": "Canada",
            "IATA": "YYQ",
            "ICAO": "CYYQ",
            "Latitude": 58.73920059204102,
            "Longitude": -94.06500244140624,
            "Altitude": 94,
            "TimeZone": "-6",
            "DST": "A",
            "TZTime": "America/Winnipeg",
            "Type": "airport",
            "Source": "OurAirports"
        },
        {
            "AirportId": 188,
            "id": "Goose Bay",
            "City": "Goose Bay",
            "Country": "Canada",
            "IATA": "YYR",
            "ICAO": "CYYR",
            "Latitude": 53.3191986084,
            "Longitude": -60.425800323500006,
            "Altitude": 160,
            "TimeZone": "-4",
            "DST": "A",
            "TZTime": "America/Halifax",
            "Type": "airport",
            "Source": "OurAirports"
        },
        {
            "AirportId": 189,
            "id": "St. John's",
            "City": "St. John's",
            "Country": "Canada",
            "IATA": "YYT",
            "ICAO": "CYYT",
            "Latitude": 47.618598938000005,
            "Longitude": -52.751899719200004,
            "Altitude": 461,
            "TimeZone": "-3.5",
            "DST": "A",
            "TZTime": "America/St_Johns",
            "Type": "airport",
            "Source": "OurAirports"
        },
        {
            "AirportId": 190,
            "id": "Kapuskasing",
            "City": "Kapuskasing",
            "Country": "Canada",
            "IATA": "YYU",
            "ICAO": "CYYU",
            "Latitude": 49.41389846801758,
            "Longitude": -82.46749877929688,
            "Altitude": 743,
            "TimeZone": "-5",
            "DST": "A",
            "TZTime": "America/Toronto",
            "Type": "airport",
            "Source": "OurAirports"
        },
        {
            "AirportId": 191,
            "id": "Armstrong",
            "City": "Armstrong",
            "Country": "Canada",
            "IATA": "YYW",
            "ICAO": "CYYW",
            "Latitude": 50.29029846191406,
            "Longitude": -88.90969848632812,
            "Altitude": 1058,
            "TimeZone": "-5",
            "DST": "A",
            "TZTime": "America/Toronto",
            "Type": "airport",
            "Source": "OurAirports"
        },
        {
            "AirportId": 192,
            "id": "Mont Joli",
            "City": "Mont Joli",
            "Country": "Canada",
            "IATA": "YYY",
            "ICAO": "CYYY",
            "Latitude": 48.60860061645508,
            "Longitude": -68.20809936523439,
            "Altitude": 172,
            "TimeZone": "-5",
            "DST": "A",
            "TZTime": "America/Toronto",
            "Type": "airport",
            "Source": "OurAirports"
        },
        {
            "AirportId": 193,
            "id": "Toronto",
            "City": "Toronto",
            "Country": "Canada",
            "IATA": "YYZ",
            "ICAO": "CYYZ",
            "Latitude": 43.6772003174,
            "Longitude": -79.63059997559999,
            "Altitude": 569,
            "TimeZone": "-5",
            "DST": "A",
            "TZTime": "America/Toronto",
            "Type": "airport",
            "Source": "OurAirports"
        },
        {
            "AirportId": 194,
            "id": "Toronto",
            "City": "Toronto",
            "Country": "Canada",
            "IATA": "YZD",
            "ICAO": "CYZD",
            "Latitude": 43.74250030517578,
            "Longitude": -79.4655990600586,
            "Altitude": 652,
            "TimeZone": "-5",
            "DST": "A",
            "TZTime": "America/Toronto",
            "Type": "airport",
            "Source": "OurAirports"
        },
        {
            "AirportId": 195,
            "id": "Gore Bay",
            "City": "Gore Bay",
            "Country": "Canada",
            "IATA": "YZE",
            "ICAO": "CYZE",
            "Latitude": 45.88529968261719,
            "Longitude": -82.56780242919922,
            "Altitude": 635,
            "TimeZone": "-5",
            "DST": "A",
            "TZTime": "America/Toronto",
            "Type": "airport",
            "Source": "OurAirports"
        },
        {
            "AirportId": 196,
            "id": "Yellowknife",
            "City": "Yellowknife",
            "Country": "Canada",
            "IATA": "YZF",
            "ICAO": "CYZF",
            "Latitude": 62.46279907226562,
            "Longitude": -114.44000244140624,
            "Altitude": 675,
            "TimeZone": "-7",
            "DST": "A",
            "TZTime": "America/Edmonton",
            "Type": "airport",
            "Source": "OurAirports"
        },
        {
            "AirportId": 197,
            "id": "Slave Lake",
            "City": "Slave Lake",
            "Country": "Canada",
            "IATA": "YZH",
            "ICAO": "CYZH",
            "Latitude": 55.293098449700004,
            "Longitude": -114.777000427,
            "Altitude": 1912,
            "TimeZone": "-7",
            "DST": "A",
            "TZTime": "America/Edmonton",
            "Type": "airport",
            "Source": "OurAirports"
        },
        {
            "AirportId": 198,
            "id": "Sandspit",
            "City": "Sandspit",
            "Country": "Canada",
            "IATA": "YZP",
            "ICAO": "CYZP",
            "Latitude": 53.25429916379999,
            "Longitude": -131.813995361,
            "Altitude": 21,
            "TimeZone": "-8",
            "DST": "A",
            "TZTime": "America/Vancouver",
            "Type": "airport",
            "Source": "OurAirports"
        },
        {
            "AirportId": 199,
            "id": "Sarnia",
            "City": "Sarnia",
            "Country": "Canada",
            "IATA": "YZR",
            "ICAO": "CYZR",
            "Latitude": 42.9994010925293,
            "Longitude": -82.30889892578125,
            "Altitude": 594,
            "TimeZone": "-5",
            "DST": "A",
            "TZTime": "America/Toronto",
            "Type": "airport",
            "Source": "OurAirports"
        },
        {
            "AirportId": 200,
            "id": "Port Hardy",
            "City": "Port Hardy",
            "Country": "Canada",
            "IATA": "YZT",
            "ICAO": "CYZT",
            "Latitude": 50.68059921264648,
            "Longitude": -127.36699676513672,
            "Altitude": 71,
            "TimeZone": "-8",
            "DST": "A",
            "TZTime": "America/Vancouver",
            "Type": "airport",
            "Source": "OurAirports"
        },
        {
            "AirportId": 201,
            "id": "Whitecourt",
            "City": "Whitecourt",
            "Country": "Canada",
            "IATA": "YZU",
            "ICAO": "CYZU",
            "Latitude": 54.14390182495117,
            "Longitude": -115.78700256347656,
            "Altitude": 2567,
            "TimeZone": "-7",
            "DST": "A",
            "TZTime": "America/Edmonton",
            "Type": "airport",
            "Source": "OurAirports"
        },
        {
            "AirportId": 202,
            "id": "Sept-iles",
            "City": "Sept-iles",
            "Country": "Canada",
            "IATA": "YZV",
            "ICAO": "CYZV",
            "Latitude": 50.22330093383789,
            "Longitude": -66.26560211181639,
            "Altitude": 180,
            "TimeZone": "-5",
            "DST": "A",
            "TZTime": "America/Toronto",
            "Type": "airport",
            "Source": "OurAirports"
        },
        {
            "AirportId": 203,
            "id": "Teslin",
            "City": "Teslin",
            "Country": "Canada",
            "IATA": "YZW",
            "ICAO": "CYZW",
            "Latitude": 60.17279815673828,
            "Longitude": -132.74299621582028,
            "Altitude": 2313,
            "TimeZone": "-8",
            "DST": "A",
            "TZTime": "America/Vancouver",
            "Type": "airport",
            "Source": "OurAirports"
        },
        {
            "AirportId": 204,
            "id": "Greenwood",
            "City": "Greenwood",
            "Country": "Canada",
            "IATA": "YZX",
            "ICAO": "CYZX",
            "Latitude": 44.98440170288086,
            "Longitude": -64.91690063476561,
            "Altitude": 92,
            "TimeZone": "-4",
            "DST": "A",
            "TZTime": "America/Halifax",
            "Type": "airport",
            "Source": "OurAirports"
        },
        {
            "AirportId": 205,
            "id": "Faro",
            "City": "Faro",
            "Country": "Canada",
            "IATA": "ZFA",
            "ICAO": "CZFA",
            "Latitude": 62.20750045776367,
            "Longitude": -133.37600708007812,
            "Altitude": 2351,
            "TimeZone": "-8",
            "DST": "A",
            "TZTime": "America/Vancouver",
            "Type": "airport",
            "Source": "OurAirports"
        },
        {
            "AirportId": 206,
            "id": "Fort Mcpherson",
            "City": "Fort Mcpherson",
            "Country": "Canada",
            "IATA": "ZFM",
            "ICAO": "CZFM",
            "Latitude": 67.40750122070311,
            "Longitude": -134.86099243164062,
            "Altitude": 116,
            "TimeZone": "-7",
            "DST": "A",
            "TZTime": "America/Edmonton",
            "Type": "airport",
            "Source": "OurAirports"
        },
        {
            "AirportId": 4094,
            "id": "Ekati",
            "City": "Ekati",
            "Country": "Canada",
            "IATA": "YOA",
            "ICAO": "CYOA",
            "Latitude": 64.6988983154,
            "Longitude": -110.614997864,
            "Altitude": 1536,
            "TimeZone": "-7",
            "DST": "A",
            "TZTime": "America/Edmonton",
            "Type": "airport",
            "Source": "OurAirports"
        },
        {
            "AirportId": 4106,
            "id": "Victoria",
            "City": "Victoria",
            "Country": "Canada",
            "IATA": "YWH",
            "ICAO": "CYWH",
            "Latitude": 48.4249858939,
            "Longitude": -123.38886737799999,
            "Altitude": 0,
            "TimeZone": "-8",
            "DST": "A",
            "TZTime": "America/Vancouver",
            "Type": "airport",
            "Source": "OurAirports"
        },
        {
            "AirportId": 4107,
            "id": "Vancouver",
            "City": "Vancouver",
            "Country": "Canada",
            "IATA": "\\N",
            "ICAO": "CAQ3",
            "Latitude": 50.5999984741,
            "Longitude": -127.583000183,
            "Altitude": 0,
            "TimeZone": "-8",
            "DST": "A",
            "TZTime": "America/Vancouver",
            "Type": "airport",
            "Source": "OurAirports"
        },
        {
            "AirportId": 4236,
            "id": "Aklavik",
            "City": "Aklavik",
            "Country": "Canada",
            "IATA": "LAK",
            "ICAO": "CYKD",
            "Latitude": 68.223297,
            "Longitude": -135.00599,
            "Altitude": 23,
            "TimeZone": "-7",
            "DST": "A",
            "TZTime": "America/Edmonton",
            "Type": "airport",
            "Source": "OurAirports"
        },
        {
            "AirportId": 4237,
            "id": "Deline",
            "City": "Deline",
            "Country": "Canada",
            "IATA": "YWJ",
            "ICAO": "CYWJ",
            "Latitude": 65.21109771728516,
            "Longitude": -123.43599700927734,
            "Altitude": 703,
            "TimeZone": "-7",
            "DST": "A",
            "TZTime": "America/Edmonton",
            "Type": "airport",
            "Source": "OurAirports"
        },
        {
            "AirportId": 4238,
            "id": "Tulita",
            "City": "Tulita",
            "Country": "Canada",
            "IATA": "ZFN",
            "ICAO": "CZFN",
            "Latitude": 64.909697,
            "Longitude": -125.572998,
            "Altitude": 332,
            "TimeZone": "-7",
            "DST": "A",
            "TZTime": "America/Edmonton",
            "Type": "airport",
            "Source": "OurAirports"
        },
        {
            "AirportId": 4239,
            "id": "Fort Good Hope",
            "City": "Fort Good Hope",
            "Country": "Canada",
            "IATA": "YGH",
            "ICAO": "CYGH",
            "Latitude": 66.24079895019531,
            "Longitude": -128.6510009765625,
            "Altitude": 268,
            "TimeZone": "-7",
            "DST": "A",
            "TZTime": "America/Edmonton",
            "Type": "airport",
            "Source": "OurAirports"
        },
        {
            "AirportId": 4244,
            "id": "Paulatuk",
            "City": "Paulatuk",
            "Country": "Canada",
            "IATA": "YPC",
            "ICAO": "CYPC",
            "Latitude": 69.3608381154,
            "Longitude": -124.075469971,
            "Altitude": 15,
            "TimeZone": "-7",
            "DST": "A",
            "TZTime": "America/Edmonton",
            "Type": "airport",
            "Source": "OurAirports"
        },
        {
            "AirportId": 5456,
            "id": "Whistler",
            "City": "Whistler",
            "Country": "Canada",
            "IATA": "YWS",
            "ICAO": "CAE5",
            "Latitude": 50.1436004639,
            "Longitude": -122.948997498,
            "Altitude": 2100,
            "TimeZone": "-8",
            "DST": "A",
            "TZTime": "America/Vancouver",
            "Type": "airport",
            "Source": "OurAirports"
        },
        {
            "AirportId": 5457,
            "id": "Anahim Lake",
            "City": "Anahim Lake",
            "Country": "Canada",
            "IATA": "YAA",
            "ICAO": "CAJ4",
            "Latitude": 52.45249938964844,
            "Longitude": -125.3030014038086,
            "Altitude": 3635,
            "TimeZone": "-8",
            "DST": "A",
            "TZTime": "America/Vancouver",
            "Type": "airport",
            "Source": "OurAirports"
        },
        {
            "AirportId": 5458,
            "id": "Williams Harbour",
            "City": "Williams Harbour",
            "Country": "Canada",
            "IATA": "YWM",
            "ICAO": "CCA6",
            "Latitude": 52.56689834594727,
            "Longitude": -55.78469848632813,
            "Altitude": 70,
            "TimeZone": "-3.5",
            "DST": "A",
            "TZTime": "America/St_Johns",
            "Type": "airport",
            "Source": "OurAirports"
        },
        {
            "AirportId": 5459,
            "id": "St. Lewis",
            "City": "St. Lewis",
            "Country": "Canada",
            "IATA": "YFX",
            "ICAO": "CCK4",
            "Latitude": 52.37279891967773,
            "Longitude": -55.67390060424805,
            "Altitude": 74,
            "TimeZone": "-3.5",
            "DST": "A",
            "TZTime": "America/St_Johns",
            "Type": "airport",
            "Source": "OurAirports"
        },
        {
            "AirportId": 5460,
            "id": "Port Hope Simpson",
            "City": "Port Hope Simpson",
            "Country": "Canada",
            "IATA": "YHA",
            "ICAO": "CCP4",
            "Latitude": 52.528099060058594,
            "Longitude": -56.28609848022461,
            "Altitude": 347,
            "TimeZone": "-3.5",
            "DST": "A",
            "TZTime": "America/St_Johns",
            "Type": "airport",
            "Source": "OurAirports"
        },
        {
            "AirportId": 5461,
            "id": "Rigolet",
            "City": "Rigolet",
            "Country": "Canada",
            "IATA": "YRG",
            "ICAO": "CCZ2",
            "Latitude": 54.1796989440918,
            "Longitude": -58.45750045776367,
            "Altitude": 180,
            "TimeZone": "-4",
            "DST": "A",
            "TZTime": "America/Halifax",
            "Type": "airport",
            "Source": "OurAirports"
        },
        {
            "AirportId": 5462,
            "id": "Colville Lake",
            "City": "Colville Lake",
            "Country": "Canada",
            "IATA": "YCK",
            "ICAO": "CEB3",
            "Latitude": 67.0392,
            "Longitude": -126.08,
            "Altitude": 850,
            "TimeZone": "-7",
            "DST": "A",
            "TZTime": "America/Edmonton",
            "Type": "airport",
            "Source": "OurAirports"
        },
        {
            "AirportId": 5463,
            "id": "What\u00ec",
            "City": "What\u00ec",
            "Country": "Canada",
            "IATA": "YLE",
            "ICAO": "CEM3",
            "Latitude": 63.13169860839844,
            "Longitude": -117.24600219726562,
            "Altitude": 882,
            "TimeZone": "-7",
            "DST": "A",
            "TZTime": "America/Edmonton",
            "Type": "airport",
            "Source": "OurAirports"
        },
        {
            "AirportId": 5464,
            "id": "Summer Beaver",
            "City": "Summer Beaver",
            "Country": "Canada",
            "IATA": "SUR",
            "ICAO": "CJV7",
            "Latitude": 52.70859909057617,
            "Longitude": -88.54190063476562,
            "Altitude": 832,
            "TimeZone": "-5",
            "DST": "A",
            "TZTime": "America/Toronto",
            "Type": "airport",
            "Source": "OurAirports"
        },
        {
            "AirportId": 5465,
            "id": "Angling Lake",
            "City": "Angling Lake",
            "Country": "Canada",
            "IATA": "YAX",
            "ICAO": "CKB6",
            "Latitude": 53.84920120239258,
            "Longitude": -89.57939910888672,
            "Altitude": 712,
            "TimeZone": "-6",
            "DST": "A",
            "TZTime": "America/Winnipeg",
            "Type": "airport",
            "Source": "OurAirports"
        },
        {
            "AirportId": 5466,
            "id": "Wunnumin Lake",
            "City": "Wunnumin Lake",
            "Country": "Canada",
            "IATA": "WNN",
            "ICAO": "CKL3",
            "Latitude": 52.89390182495117,
            "Longitude": -89.28919982910156,
            "Altitude": 819,
            "TimeZone": "-5",
            "DST": "A",
            "TZTime": "America/Toronto",
            "Type": "airport",
            "Source": "OurAirports"
        },
        {
            "AirportId": 5467,
            "id": "North Spirit Lake",
            "City": "North Spirit Lake",
            "Country": "Canada",
            "IATA": "YNO",
            "ICAO": "CKQ3",
            "Latitude": 52.4900016784668,
            "Longitude": -92.97109985351562,
            "Altitude": 1082,
            "TimeZone": "-6",
            "DST": "A",
            "TZTime": "America/Winnipeg",
            "Type": "airport",
            "Source": "OurAirports"
        },
        {
            "AirportId": 5468,
            "id": "Bearskin Lake",
            "City": "Bearskin Lake",
            "Country": "Canada",
            "IATA": "XBE",
            "ICAO": "CNE3",
            "Latitude": 53.965599060058594,
            "Longitude": -91.0271987915039,
            "Altitude": 800,
            "TimeZone": "-6",
            "DST": "A",
            "TZTime": "America/Winnipeg",
            "Type": "airport",
            "Source": "OurAirports"
        },
        {
            "AirportId": 5469,
            "id": "Kingfisher Lake",
            "City": "Kingfisher Lake",
            "Country": "Canada",
            "IATA": "KIF",
            "ICAO": "CNM5",
            "Latitude": 53.01250076293945,
            "Longitude": -89.85530090332031,
            "Altitude": 866,
            "TimeZone": "-5",
            "DST": "A",
            "TZTime": "America/Toronto",
            "Type": "airport",
            "Source": "OurAirports"
        },